[
  {
    "id": "american-flatbread",
    "name": "American Flatbread",
    "address": "115 St Paul St, Burlington, VT 05401",
    "phoneNumber": "+18028612999",
    "hours": "4:00pm - 8:00pm",
    "latlong": [44.47655925,-73.21435285244789],
    "lat": 44.47655925,
    "long": -73.21435285244789,
    "description": [
      "Lively choice for craft beer & inventive wood-fired pizzas loaded with organic, seasonal toppings."
    ]
  },
  {
    "id": "ben-and-jerrys",
    "name": "Ben & Jerry's",
    "address": "36 Church St, Burlington, VT 05401",
    "phoneNumber": "+18028629620",
    "hours": "2:00 pm - 8:00 pm",
    "latlong": [44.479443,-73.2125134],
    "lat": 44.479443,
    "long": -73.2125134,
    "description": [
      "Iconic Vermont-based ice cream parlor chain, known for its creative, cleverly named flavors."
    ]
  },
  {
    "id": "halvorsons",
    "name": "Halvorson's",
    "address": "16 Church St, Burlington, VT 05401",
    "phoneNumber": "+18026580278",
    "hours": "10:00 am - 9:00pm",
    "latlong": [44.4798907,-73.2125528],
    "lat": 44.4798907,
    "long": -73.2125528,
    "description": [
      "Family-run joint furnishing local beers & hearty comfort food in a cozy, wood-lined interior."
    ]
  },
  {
    "id": "hen-of-the-wood",
    "name": "Hen of the Wood",
    "address": "55 Cherry St, Burlington, VT 05401",
    "phoneNumber": "+18025400534",
    "hours": "5:00 pm - 9:00pm",
    "latlong": [44.4790109,-73.217258],
    "lat": 44.4790109,
    "long": -73.217258,
    "description": [
      "Intimate eatery featuring daily menus of local, seasonal fare, craft cocktails & understated decor."
    ]
  },
  {
    "id": "henrys-diner",
    "name": "Henry's Diner",
    "address": "155 Bank St, Burlington, VT 05401",
    "phoneNumber": "802-862-9010",
    "hours": "6:00 am - 4:00pm",
    "latlong": [44.47801795, -73.21350650155372],
    "lat": 44.47801795,
    "long": -73.21350650155372,
    "description": [
      "Diner with old-school style, serving all-American eats (including all-day breakfast) since 1925."
    ]
  },
  {
    "id": "nectars",
    "name": "Nectar's",
    "address": "188 Main St, Burlington, VT 05401",
    "phoneNumber": "+18026584771",
    "hours": "7:00 pm - 2:00 am",
    "latlong": [44.47613,-73.2117172],
    "lat": 44.47613,
    "long": -73.2117172,
    "description": [
      "Landmark music hall featuring local music acts, craft beer & famed gravy fries, plus other pub grub."
    ]
  },
  {
    "id": "new-moon",
    "name": "New Moon Cafe",
    "address": "150 Cherry St, Burlington, VT 05401",
    "phoneNumber": "+180238315051",
    "hours": "8:00 am - 6:00pm",
    "latlong": [33.4765238,-81.9699747],
    "lat": 33.4765238,
    "long": -81.9699747,
    "description": [
      "Stylish cafe featuring espresso drinks, baked goods, breakfast & lunch, plus a full vegan menu."
    ]
  },
  {
    "id": "the-skinny-pancake",
    "name": "The Skinny Pancake",
    "address": "60 Lake St, Burlington, VT 05401",
    "phoneNumber": "+18025400188",
    "hours": "8:00 am - 7:00pm",
    "latlong": [44.4770114,-73.2195093],
    "lat": 44.4770114,
    "long": -73.2195093,
    "description": [
      "Local chain featuring breakfast, crepes, panini & live music in a casual, stylish space."
    ]
  }
]
